[
  {
    "city_name": "潮州市",
    "adcode": 445100,
    "lon": 116.77259018704551,
    "lat": 23.79586191616381,
    "lowland_index": 0.14695597140484754,
    "impervious_frac": 0.09091362287051169,
    "fire_risk_weight": 1.2954376243753336
  },
  {
    "city_name": "东莞市",
    "adcode": 441900,
    "lon": 113.87572311129101,
    "lat": 22.935313757608554,
    "lowland_index": 0.4819801044525843,
    "impervious_frac": 0.45286276234292,
    "fire_risk_weight": 1.108101995544071
  },
  {
    "city_name": "佛山市",
    "adcode": 440600,
    "lon": 112.94444453841504,
    "lat": 23.0064077022805,
    "lowland_index": 0.3084246852676664,
    "impervious_frac": 0.33226623232891933,
    "fire_risk_weight": 1.0698311024362164
  },
  {
    "city_name": "广州市",
    "adcode": 440100,
    "lon": 113.5357453378503,
    "lat": 23.348399420962114,
    "lowland_index": 0.24148995222373026,
    "impervious_frac": 0.19067658895376316,
    "fire_risk_weight": 1.2094795275191588
  },
  {
    "city_name": "河源市",
    "adcode": 441600,
    "lon": 114.9576600093559,
    "lat": 24.044486977317757,
    "lowland_index": 0.014302336123787361,
    "impervious_frac": 0.013297681214794972,
    "fire_risk_weight": 1.3907520157982123
  },
  {
    "city_name": "惠州市",
    "adcode": 441300,
    "lon": 114.49858689197521,
    "lat": 23.24265142768094,
    "lowland_index": 0.1363544360796296,
    "impervious_frac": 0.053048281183534655,
    "fire_risk_weight": 1.3165213657605654
  },
  {
    "city_name": "江门市",
    "adcode": 440700,
    "lon": 112.6698615031149,
    "lat": 22.28107609936574,
    "lowland_index": 0.3192362942612552,
    "impervious_frac": 0.06680939813718943,
    "fire_risk_weight": 1.2063283212447313
  },
  {
    "city_name": "揭阳市",
    "adcode": 445200,
    "lon": 116.11690376760232,
    "lat": 23.338323784516977,
    "lowland_index": 0.2533175993837958,
    "impervious_frac": 0.09652782259005667,
    "fire_risk_weight": 1.2574799855014158
  },
  {
    "city_name": "茂名市",
    "adcode": 440900,
    "lon": 110.95110048088421,
    "lat": 22.015129769981915,
    "lowland_index": 0.18423605025728698,
    "impervious_frac": 0.028462399660591498,
    "fire_risk_weight": 1.308514698313033
  },
  {
    "city_name": "梅州市",
    "adcode": 441400,
    "lon": 116.07920728844928,
    "lat": 24.20278153618183,
    "lowland_index": 0.00807523841388344,
    "impervious_frac": 0.020007733211224444,
    "fire_risk_weight": 1.4115684678142684
  },
  {
    "city_name": "清远市",
    "adcode": 441800,
    "lon": 112.87474255609942,
    "lat": 24.314387348616844,
    "lowland_index": 0.05109463142398457,
    "impervious_frac": 0.020932034528377986,
    "fire_risk_weight": 1.3809607446067365
  },
  {
    "city_name": "汕头市",
    "adcode": 440500,
    "lon": 116.58310315059782,
    "lat": 23.333378608861363,
    "lowland_index": 0.2012889301621696,
    "impervious_frac": 0.23427716859483758,
    "fire_risk_weight": 1.0605790298520605
  },
  {
    "city_name": "汕尾市",
    "adcode": 441500,
    "lon": 115.53273734593706,
    "lat": 23.01374520357742,
    "lowland_index": 0.043643378092386116,
    "impervious_frac": 0.04961686288926171,
    "fire_risk_weight": 1.234854380792491
  },
  {
    "city_name": "韶关市",
    "adcode": 440200,
    "lon": 113.77457006372677,
    "lat": 24.820409034770154,
    "lowland_index": 0.002005604032104911,
    "impervious_frac": 0.020579691116127893,
    "fire_risk_weight": 1.4022634084205758
  },
  {
    "city_name": "深圳市",
    "adcode": 440300,
    "lon": 114.12666014732112,
    "lat": 22.654398914211686,
    "lowland_index": 0.21707200596361265,
    "impervious_frac": 0.40705266923137284,
    "fire_risk_weight": 1.247766842498764
  },
  {
    "city_name": "阳江市",
    "adcode": 441700,
    "lon": 111.77180246711487,
    "lat": 22.039376451843516,
    "lowland_index": 0.24198043269011635,
    "impervious_frac": 0.028192944729725708,
    "fire_risk_weight": 1.3070160410092826
  },
  {
    "city_name": "云浮市",
    "adcode": 445300,
    "lon": 111.79385495000193,
    "lat": 22.815912586333226,
    "lowland_index": 0.05640495867768595,
    "impervious_frac": 0.02635395564265901,
    "fire_risk_weight": 1.38859666859553
  },
  {
    "city_name": "湛江市",
    "adcode": 440800,
    "lon": 110.16406267520114,
    "lat": 21.096051775619234,
    "lowland_index": 0.3551423275450462,
    "impervious_frac": 0.052317674568964544,
    "fire_risk_weight": 1.0859162121271098
  },
  {
    "city_name": "肇庆市",
    "adcode": 441200,
    "lon": 112.20533551535543,
    "lat": 23.537572014130433,
    "lowland_index": 0.09723963562627788,
    "impervious_frac": 0.02583428948444308,
    "fire_risk_weight": 1.3777885340996576
  },
  {
    "city_name": "中山市",
    "adcode": 442000,
    "lon": 113.38437084281107,
    "lat": 22.520466585746238,
    "lowland_index": 0.4683775131258804,
    "impervious_frac": 0.3455689678413503,
    "fire_risk_weight": 1.0432029137581507
  },
  {
    "city_name": "珠海市",
    "adcode": 440400,
    "lon": 113.35734747668023,
    "lat": 22.169897766025084,
    "lowland_index": 0.12858573452999528,
    "impervious_frac": 0.21135577336893036,
    "fire_risk_weight": 1.0576042060627964
  }
]